{"type": "FeatureCollection", "features": [{"type": "Feature", "geometry": {"type": "Point", "coordinates": [44.6441, 41.60299]}, "properties": {"Name_Geo": "ენაგეთი", "Name_Eng": "Enageti", "Type_Geo": "გამარჯვება", "Type_Eng": "Victory", "Years": "1488", "Municipali": "თეთრიწყარო"}}, {"type": "Feature", "geometry": {"type": "Point", "coordinates": [44.53807, 41.57759]}, "properties": {"Name_Geo": "ფარცხისი", "Name_Eng": "Partskhisi", "Type_Geo": "გამარჯვება", "Type_Eng": "Victory", "Years": "1074", "Municipali": "თეთრიწყარო"}}, {"type": "Feature", "geometry": {"type": "Point", "coordinates": [44.44082, 41.53748]}, "properties": {"Name_Geo": "გარისა", "Name_Eng": "Garisa", "Type_Geo": "გამარჯვება", "Type_Eng": "Victory", "Years": "1556", "Municipali": "თეთრიწყარო"}}, {"type": "Feature", "geometry": {"type": "Point", "coordinates": [44.53807, 41.57759]}, "properties": {"Name_Geo": "ფარცხისი", "Name_Eng": "Partskhisi", "Type_Geo": "დამარცხება", "Type_Eng": "Defeat", "Years": "1074", "Municipali": "თეთრიწყარო"}}, {"type": "Feature", "geometry": {"type": "Point", "coordinates": [44.83698, 41.60593]}, "properties": {"Name_Geo": "თრიალეთი", "Name_Eng": "Trialeti", "Type_Geo": "გამარჯვება", "Type_Eng": "Victory", "Years": "1110", "Municipali": "გარდაბანი"}}, {"type": "Feature", "geometry": {"type": "Point", "coordinates": [44.77006, 41.53932]}, "properties": {"Name_Geo": "მარაბდა", "Name_Eng": "Marabda", "Type_Geo": "დამარცხება", "Type_Eng": "Defeat", "Years": "1625", "Municipali": "თეთრიწყარო"}}, {"type": "Feature", "geometry": {"type": "Point", "coordinates": [44.84641, 41.64562]}, "properties": {"Name_Geo": "თელეთი", "Name_Eng": "Teleti", "Type_Geo": "დამარცხება", "Type_Eng": "Defeat", "Years": "1522", "Municipali": "გარდაბანი"}}, {"type": "Feature", "geometry": {"type": "Point", "coordinates": [45.03711, 41.7526]}, "properties": {"Name_Geo": "მარტყოფი", "Name_Eng": "Martkopi", "Type_Geo": "გამარჯვება", "Type_Eng": "Victory", "Years": "1625", "Municipali": "გარდაბანი"}}, {"type": "Feature", "geometry": {"type": "Point", "coordinates": [44.69332, 41.46765]}, "properties": {"Name_Geo": "ნახიდური", "Name_Eng": "Nakhiduri", "Type_Geo": "დამარცხება", "Type_Eng": "Defeat", "Years": "1599", "Municipali": "ბოლნისი"}}, {"type": "Feature", "geometry": {"type": "Point", "coordinates": [44.58156, 41.40402]}, "properties": {"Name_Geo": "ხატისსოფელი", "Name_Eng": "Khatissopeli", "Type_Geo": "დამარცხება", "Type_Eng": "Defeat", "Years": "1584", "Municipali": "ბოლნისი"}}, {"type": "Feature", "geometry": {"type": "Point", "coordinates": [44.53781, 41.41422]}, "properties": {"Name_Geo": "ბოლნისი", "Name_Eng": "Bolnisi", "Type_Geo": "დამარცხება", "Type_Eng": "Defeat", "Years": "1227", "Municipali": "ბოლნისი"}}, {"type": "Feature", "geometry": {"type": "Point", "coordinates": [44.32341, 41.32501]}, "properties": {"Name_Geo": "დმანისი", "Name_Eng": "Dmanisi", "Type_Geo": "დაბრუნებული ქალაქ", "Type_Eng": "Restored city (Builder)", "Years": "1124", "Municipali": "დმანისი"}}, {"type": "Feature", "geometry": {"type": "Point", "coordinates": [44.49092, 41.51566]}, "properties": {"Name_Geo": "სამშვილდე", "Name_Eng": "Samshvilde", "Type_Geo": "დაბრუნებული ქალაქ", "Type_Eng": "Restored city (Builder)", "Years": "1110", "Municipali": "თეთრიწყარო"}}, {"type": "Feature", "geometry": {"type": "Point", "coordinates": [45.00901, 41.52372]}, "properties": {"Name_Geo": "რუსთავი", "Name_Eng": "Rustavi", "Type_Geo": "დაბრუნებული ქალაქ", "Type_Eng": "Restored city (Builder)", "Years": "1115", "Municipali": "რუსთავი"}}, {"type": "Feature", "geometry": {"type": "Point", "coordinates": [44.50204, 41.75361]}, "properties": {"Name_Geo": "დიდგორი", "Name_Eng": "Didgori", "Type_Geo": "გამარჯვება", "Type_Eng": "Victory", "Years": "1121", "Municipali": "თეთრიწყარო"}}]}