{"type": "FeatureCollection", "features": [{"type": "Feature", "geometry": {"type": "Point", "coordinates": [44.667, 41.592]}, "properties": {"Name_Geo": "ასურეთი", "Name_Eng": "Asureti", "Total_km2": 8.15, "P100_km2": 3.96, "Class": "3–4", "Radius": 11, "Color": "#7B1FA2"}}, {"type": "Feature", "geometry": {"type": "Point", "coordinates": [44.792, 41.242]}, "properties": {"Name_Geo": "სადახლო", "Name_Eng": "Sadakhlo", "Total_km2": 6.83, "P100_km2": 6.18, "Class": "> 4", "Radius": 14, "Color": "#4A148C"}}, {"type": "Feature", "geometry": {"type": "Point", "coordinates": [44.717, 41.225]}, "properties": {"Name_Geo": "გულბაღი", "Name_Eng": "Gulbagi", "Total_km2": 4.933, "P100_km2": 1.05, "Class": "1–2", "Radius": 7, "Color": "#E53935"}}, {"type": "Feature", "geometry": {"type": "Point", "coordinates": [44.167, 41.442]}, "properties": {"Name_Geo": "ყიზილაჯლო", "Name_Eng": "Kizilajlo", "Total_km2": 3.1, "P100_km2": 1.54, "Class": "1–2", "Radius": 7, "Color": "#E53935"}}, {"type": "Feature", "geometry": {"type": "Point", "coordinates": [44.633, 41.25]}, "properties": {"Name_Geo": "ოფრეთი", "Name_Eng": "Opreti", "Total_km2": 2.563, "P100_km2": 2.03, "Class": "2–3", "Radius": 9, "Color": "#B71C1C"}}, {"type": "Feature", "geometry": {"type": "Point", "coordinates": [44.625, 41.583]}, "properties": {"Name_Geo": "ჯორჯიაშვილი", "Name_Eng": "Jorjiashvili", "Total_km2": 2.09, "P100_km2": 0.617, "Class": "≤ 1", "Radius": 5, "Color": "#EF9A9A"}}, {"type": "Feature", "geometry": {"type": "Point", "coordinates": [44.692, 41.225]}, "properties": {"Name_Geo": "ხოჯორნი", "Name_Eng": "Khojorni", "Total_km2": 2.05, "P100_km2": 1.39, "Class": "1–2", "Radius": 7, "Color": "#E53935"}}, {"type": "Feature", "geometry": {"type": "Point", "coordinates": [44.75, 41.442]}, "properties": {"Name_Geo": "თამარისი", "Name_Eng": "Tamarisi", "Total_km2": 2.005, "P100_km2": 1.23, "Class": "1–2", "Radius": 7, "Color": "#E53935"}}, {"type": "Feature", "geometry": {"type": "Point", "coordinates": [44.642, 41.383]}, "properties": {"Name_Geo": "ფახრალო", "Name_Eng": "Parakhlo", "Total_km2": 1.805, "P100_km2": 0.974, "Class": "≤ 1", "Radius": 5, "Color": "#EF9A9A"}}, {"type": "Feature", "geometry": {"type": "Point", "coordinates": [44.9, 41.442]}, "properties": {"Name_Geo": "ალგეთი", "Name_Eng": "Algeti", "Total_km2": 1.8, "P100_km2": 0.72, "Class": "≤ 1", "Radius": 5, "Color": "#EF9A9A"}}, {"type": "Feature", "geometry": {"type": "Point", "coordinates": [44.817, 41.442]}, "properties": {"Name_Geo": "წერეთელი", "Name_Eng": "Tsereteli", "Total_km2": 1.72, "P100_km2": 1.59, "Class": "1–2", "Radius": 7, "Color": "#E53935"}}, {"type": "Feature", "geometry": {"type": "Point", "coordinates": [44.575, 41.217]}, "properties": {"Name_Geo": "ახკერპი", "Name_Eng": "Akhkerpi", "Total_km2": 1.595, "P100_km2": 1.315, "Class": "1–2", "Radius": 7, "Color": "#E53935"}}, {"type": "Feature", "geometry": {"type": "Point", "coordinates": [44.75, 41.32]}, "properties": {"Name_Geo": "შულავერი", "Name_Eng": "Shulaveri", "Total_km2": 1.55, "P100_km2": 0.56, "Class": "≤ 1", "Radius": 5, "Color": "#EF9A9A"}}, {"type": "Feature", "geometry": {"type": "Point", "coordinates": [44.617, 41.542]}, "properties": {"Name_Geo": "წინწყარო", "Name_Eng": "Tsintskaro", "Total_km2": 1.48, "P100_km2": 1.067, "Class": "1–2", "Radius": 7, "Color": "#E53935"}}, {"type": "Feature", "geometry": {"type": "Point", "coordinates": [44.48, 41.5]}, "properties": {"Name_Geo": "გარისი", "Name_Eng": "Garisi", "Total_km2": 1.46, "P100_km2": 0.95, "Class": "≤ 1", "Radius": 5, "Color": "#EF9A9A"}}, {"type": "Feature", "geometry": {"type": "Point", "coordinates": [44.775, 41.583]}, "properties": {"Name_Geo": "კოდა", "Name_Eng": "Koda", "Total_km2": 1.33, "P100_km2": 0.53, "Class": "≤ 1", "Radius": 5, "Color": "#EF9A9A"}}, {"type": "Feature", "geometry": {"type": "Point", "coordinates": [44.508, 41.458]}, "properties": {"Name_Geo": "რატევანი", "Name_Eng": "Ratevani", "Total_km2": 1.315, "P100_km2": 0.77, "Class": "≤ 1", "Radius": 5, "Color": "#EF9A9A"}}, {"type": "Feature", "geometry": {"type": "Point", "coordinates": [44.858, 41.45]}, "properties": {"Name_Geo": "საბირკენდი", "Name_Eng": "Sabirkendi", "Total_km2": 1.12, "P100_km2": 1.05, "Class": "1–2", "Radius": 7, "Color": "#E53935"}}, {"type": "Feature", "geometry": {"type": "Point", "coordinates": [44.108, 41.483]}, "properties": {"Name_Geo": "განახლება", "Name_Eng": "Ganakhleba", "Total_km2": 1.025, "P100_km2": 0.644, "Class": "≤ 1", "Radius": 5, "Color": "#EF9A9A"}}, {"type": "Feature", "geometry": {"type": "Point", "coordinates": [44.717, 41.383]}, "properties": {"Name_Geo": "სარაჩლო", "Name_Eng": "Sarachlo", "Total_km2": 0.94, "P100_km2": 0.32, "Class": "≤ 1", "Radius": 5, "Color": "#EF9A9A"}}, {"type": "Feature", "geometry": {"type": "Point", "coordinates": [44.167, 41.408]}, "properties": {"Name_Geo": "კიროვისი", "Name_Eng": "Kirovisi", "Total_km2": 0.935, "P100_km2": 0.4, "Class": "≤ 1", "Radius": 5, "Color": "#EF9A9A"}}, {"type": "Feature", "geometry": {"type": "Point", "coordinates": [44.5, 41.45]}, "properties": {"Name_Geo": "კოლმი", "Name_Eng": "Kolmi", "Total_km2": 0.75, "P100_km2": 0.443, "Class": "≤ 1", "Radius": 5, "Color": "#EF9A9A"}}, {"type": "Feature", "geometry": {"type": "Point", "coordinates": [44.408, 41.508]}, "properties": {"Name_Geo": "სამღერეთი", "Name_Eng": "Samgeret", "Total_km2": 0.65, "P100_km2": 0.39, "Class": "≤ 1", "Radius": 5, "Color": "#EF9A9A"}}, {"type": "Feature", "geometry": {"type": "Point", "coordinates": [44.633, 41.433]}, "properties": {"Name_Geo": "კოჩული", "Name_Eng": "Kochuli", "Total_km2": 0.63, "P100_km2": 0.137, "Class": "≤ 1", "Radius": 5, "Color": "#EF9A9A"}}, {"type": "Feature", "geometry": {"type": "Point", "coordinates": [44.358, 41.542]}, "properties": {"Name_Geo": "ირაგა", "Name_Eng": "Iraga", "Total_km2": 0.58, "P100_km2": 0.45, "Class": "≤ 1", "Radius": 5, "Color": "#EF9A9A"}}, {"type": "Feature", "geometry": {"type": "Point", "coordinates": [44.733, 41.6]}, "properties": {"Name_Geo": "ბორბალო", "Name_Eng": "Borbalo", "Total_km2": 0.505, "P100_km2": 0.255, "Class": "≤ 1", "Radius": 5, "Color": "#EF9A9A"}}, {"type": "Feature", "geometry": {"type": "Point", "coordinates": [44.608, 41.325]}, "properties": {"Name_Geo": "დარბაზი", "Name_Eng": "Darbazi", "Total_km2": 0.5, "P100_km2": 0.2, "Class": "≤ 1", "Radius": 5, "Color": "#EF9A9A"}}, {"type": "Feature", "geometry": {"type": "Point", "coordinates": [44.442, 41.442]}, "properties": {"Name_Geo": "ქვეში", "Name_Eng": "Kveshi", "Total_km2": 0.45, "P100_km2": 0.29, "Class": "≤ 1", "Radius": 5, "Color": "#EF9A9A"}}, {"type": "Feature", "geometry": {"type": "Point", "coordinates": [44.75, 41.54]}, "properties": {"Name_Geo": "მარაბდა", "Name_Eng": "Marabda", "Total_km2": 0.41, "P100_km2": 0.28, "Class": "≤ 1", "Radius": 5, "Color": "#EF9A9A"}}, {"type": "Feature", "geometry": {"type": "Point", "coordinates": [44.742, 41.617]}, "properties": {"Name_Geo": "ვაშლოვანი", "Name_Eng": "Vashlovani", "Total_km2": 0.41, "P100_km2": 0.31, "Class": "≤ 1", "Radius": 5, "Color": "#EF9A9A"}}, {"type": "Feature", "geometry": {"type": "Point", "coordinates": [44.667, 41.433]}, "properties": {"Name_Geo": "იმირასანი", "Name_Eng": "Imirasani", "Total_km2": 0.39, "P100_km2": 0.39, "Class": "≤ 1", "Radius": 5, "Color": "#EF9A9A"}}, {"type": "Feature", "geometry": {"type": "Point", "coordinates": [45.025, 41.417]}, "properties": {"Name_Geo": "კაპანახჩი", "Name_Eng": "Kapanaxchi", "Total_km2": 0.3, "P100_km2": 0.18, "Class": "≤ 1", "Radius": 5, "Color": "#EF9A9A"}}, {"type": "Feature", "geometry": {"type": "Point", "coordinates": [44.492, 41.517]}, "properties": {"Name_Geo": "სამშვილდე", "Name_Eng": "samshvilde", "Total_km2": 0.22, "P100_km2": 0.17, "Class": "≤ 1", "Radius": 5, "Color": "#EF9A9A"}}, {"type": "Feature", "geometry": {"type": "Point", "coordinates": [44.542, 41.592]}, "properties": {"Name_Geo": "ტბისი", "Name_Eng": "Tbisi", "Total_km2": 0.2, "P100_km2": 0.07, "Class": "≤ 1", "Radius": 5, "Color": "#EF9A9A"}}]}