{"type": "FeatureCollection", "features": [{"type": "Feature", "geometry": {"type": "Point", "coordinates": [44.53651, 41.36992]}, "properties": {"Name_Geo": "ფოლადაური", "Name_Eng": "Poladauri", "Type_Geo": "რკინა", "Type_Eng": "Iron", "raioni": "ბოლნისი", "District": "Bolnisi", "symbol": "rkina", "category": "metal"}}, {"type": "Feature", "geometry": {"type": "Point", "coordinates": [44.59721, 41.37631]}, "properties": {"Name_Geo": "ფოლადაური", "Name_Eng": "Poladauri", "Type_Geo": "რკინა", "Type_Eng": "Iron", "raioni": "ბოლნისი", "District": "Bolnisi", "symbol": "rkina", "category": "metal"}}, {"type": "Feature", "geometry": {"type": "Point", "coordinates": [44.60725, 41.38011]}, "properties": {"Name_Geo": "ფოლადაური", "Name_Eng": "Poladauri", "Type_Geo": "რკინა", "Type_Eng": "Iron", "raioni": "ბოლნისი", "District": "Bolnisi", "symbol": "rkina", "category": "metal"}}, {"type": "Feature", "geometry": {"type": "Point", "coordinates": [44.59372, 41.3616]}, "properties": {"Name_Geo": "ფოლადაური", "Name_Eng": "Poladauri", "Type_Geo": "რკინა", "Type_Eng": "Iron", "raioni": "ბოლნისი", "District": "Bolnisi", "symbol": "rkina", "category": "metal"}}, {"type": "Feature", "geometry": {"type": "Point", "coordinates": [44.5301, 41.37093]}, "properties": {"Name_Geo": "ფოლადაური", "Name_Eng": "Poladauri", "Type_Geo": "რკინა", "Type_Eng": "Iron", "raioni": "ბოლნისი", "District": "Bolnisi", "symbol": "rkina", "category": "metal"}}, {"type": "Feature", "geometry": {"type": "Point", "coordinates": [44.53241, 41.37303]}, "properties": {"Name_Geo": "ფოლადაური", "Name_Eng": "Poladauri", "Type_Geo": "რკინა", "Type_Eng": "Iron", "raioni": "ბოლნისი", "District": "Bolnisi", "symbol": "rkina", "category": "metal"}}, {"type": "Feature", "geometry": {"type": "Point", "coordinates": [44.38276, 41.38289]}, "properties": {"Name_Geo": "საყდრისი", "Name_Eng": "Sakdrisi", "Type_Geo": "ოქრო", "Type_Eng": "Gold", "raioni": "ბოლნისი", "District": "Bolnisi", "symbol": "oqro", "category": "metal"}}, {"type": "Feature", "geometry": {"type": "Point", "coordinates": [44.38566, 41.38285]}, "properties": {"Name_Geo": "საყდრისი", "Name_Eng": "Sakdrisi", "Type_Geo": "ოქრო", "Type_Eng": "Gold", "raioni": "ბოლნისი", "District": "Bolnisi", "symbol": "oqro", "category": "metal"}}, {"type": "Feature", "geometry": {"type": "Point", "coordinates": [44.3905, 41.38664]}, "properties": {"Name_Geo": "საყდრისი", "Name_Eng": "Sakdrisi", "Type_Geo": "ოქრო", "Type_Eng": "Gold", "raioni": "ბოლნისი", "District": "Bolnisi", "symbol": "oqro", "category": "metal"}}, {"type": "Feature", "geometry": {"type": "Point", "coordinates": [44.39428, 41.38692]}, "properties": {"Name_Geo": "საყდრისი", "Name_Eng": "Sakdrisi", "Type_Geo": "ოქრო", "Type_Eng": "Gold", "raioni": "ბოლნისი", "District": "Bolnisi", "symbol": "oqro", "category": "metal"}}, {"type": "Feature", "geometry": {"type": "Point", "coordinates": [44.44159, 41.4053]}, "properties": {"Name_Geo": "დავით-გარეჯი", "Name_Eng": "Davit-Gareji", "Type_Geo": "ვერცხლი", "Type_Eng": "Silver", "raioni": "ბოლნისი", "District": "Bolnisi", "symbol": "vercxli", "category": "metal"}}, {"type": "Feature", "geometry": {"type": "Point", "coordinates": [44.58239, 41.41341]}, "properties": {"Name_Geo": "წითელსოფელი", "Name_Eng": "Tsitelsopeli", "Type_Geo": "სპილენძი, პოლიმეტა", "Type_Eng": "Copper, complex ore", "raioni": "ბოლნისი", "District": "Bolnisi", "symbol": "spilendzi", "category": "metal"}}, {"type": "Feature", "geometry": {"type": "Point", "coordinates": [44.39598, 41.3046]}, "properties": {"Name_Geo": "დამბლუდი", "Name_Eng": "Dambludi", "Type_Geo": "სპილენძი, პოლიმეტა", "Type_Eng": "Copper, complex ore", "raioni": "დმანისი", "District": "Dmanisi", "symbol": "spilendzi", "category": "metal"}}, {"type": "Feature", "geometry": {"type": "Point", "coordinates": [44.51296, 41.41069]}, "properties": {"Name_Geo": "ქვემო ბოლნისი", "Name_Eng": "Kvemo Bolnisi", "Type_Geo": "სპილენძი, პოლიმეტა", "Type_Eng": "Copper, complex ore", "raioni": "ბოლნისი", "District": "Bolnisi", "symbol": "spilendzi", "category": "metal"}}, {"type": "Feature", "geometry": {"type": "Point", "coordinates": [44.3491, 41.46903]}, "properties": {"Name_Geo": "ხრამი", "Name_Eng": "Khrami", "Type_Geo": "ქვიშრობული ოქრო", "Type_Eng": "Alluvial gold", "raioni": "თეთრიწყარო", "District": "Tetritskaro", "symbol": "oqro", "category": "metal"}}, {"type": "Feature", "geometry": {"type": "Point", "coordinates": [44.32436, 41.30208]}, "properties": {"Name_Geo": "ფინაზაური", "Name_Eng": "Finazuri", "Type_Geo": "ქვიშრობული ოქრო", "Type_Eng": "Alluvial gold", "raioni": "დმანისი", "District": "Dmanisi", "symbol": "oqro", "category": "metal"}}, {"type": "Feature", "geometry": {"type": "Point", "coordinates": [44.25106, 41.52962]}, "properties": {"Name_Geo": "ხრამი", "Name_Eng": "Khrami", "Type_Geo": "ქვიშრობული ოქრო", "Type_Eng": "Alluvial gold", "raioni": "დმანისი", "District": "Dmanisi", "symbol": "oqro", "category": "metal"}}, {"type": "Feature", "geometry": {"type": "Point", "coordinates": [44.60957, 41.49206]}, "properties": {"Name_Geo": "ხრამი", "Name_Eng": "Khrami", "Type_Geo": "ქვიშრობული ოქრო", "Type_Eng": "Alluvial gold", "raioni": "თეთრიწყარო", "District": "Tetritskaro", "symbol": "oqro", "category": "metal"}}, {"type": "Feature", "geometry": {"type": "Point", "coordinates": [44.70651, 41.46692]}, "properties": {"Name_Geo": "ხრამი", "Name_Eng": "Khrami", "Type_Geo": "ქვიშრობული ოქრო", "Type_Eng": "Alluvial gold", "raioni": "ბოლნისი", "District": "Bolnisi", "symbol": "oqro", "category": "metal"}}, {"type": "Feature", "geometry": {"type": "Point", "coordinates": [44.49664, 41.40973]}, "properties": {"Name_Geo": "ქვემო ბოლნისი", "Name_Eng": "Kvemo Bolnisi", "Type_Geo": "სპილენძი, პოლიმეტა", "Type_Eng": "Copper, complex ore", "raioni": "ბოლნისი", "District": "Bolnisi", "symbol": "spilendzi", "category": "metal"}}, {"type": "Feature", "geometry": {"type": "Point", "coordinates": [44.40843, 41.34583]}, "properties": {"Name_Geo": "ბალიჭი", "Name_Eng": "Balichi", "Type_Geo": "სპილენძი, პოლიმეტა", "Type_Eng": "Copper, complex ore", "raioni": "ბოლნისი", "District": "Bolnisi", "symbol": "spilendzi", "category": "metal"}}, {"type": "Feature", "geometry": {"type": "Point", "coordinates": [44.46127, 41.36537]}, "properties": {"Name_Geo": "მადნეული", "Name_Eng": "Madneuli", "Type_Geo": "სპილენძი, პოლიმეტა", "Type_Eng": "Copper, complex ore", "raioni": "ბოლნისი", "District": "Bolnisi", "symbol": "spilendzi", "category": "metal"}}, {"type": "Feature", "geometry": {"type": "Point", "coordinates": [44.38735, 41.47161]}, "properties": {"Name_Geo": "ბექთაქარი", "Name_Eng": "Bektakari", "Type_Geo": "პოლიმეტალები", "Type_Eng": "Polimetal", "raioni": "ბოლნისი", "District": "Bolnisi", "symbol": "spilendzi", "category": "metal"}}, {"type": "Feature", "geometry": {"type": "Point", "coordinates": [44.45526, 41.4038]}, "properties": {"Name_Geo": "დავით-გარეჯი", "Name_Eng": "Davit-Gareji", "Type_Geo": "ბარიტ-პოლიმეტალურ", "Type_Eng": "Barit-polymetallic ores", "raioni": "ბოლნისი", "District": "Bolnisi", "symbol": "bariti", "category": "metal"}}, {"type": "Feature", "geometry": {"type": "Point", "coordinates": [44.38735, 41.47161]}, "properties": {"Name_Geo": "ბექთაქარი", "Name_Eng": "Bektakari", "Type_Geo": "პოლიმეტალები", "Type_Eng": "Polimetal", "raioni": "ბოლნისი", "District": "Bolnisi", "symbol": "spilendzi", "category": "metal"}}, {"type": "Feature", "geometry": {"type": "Point", "coordinates": [44.35403, 41.48084]}, "properties": {"Name_Geo": "ბნელიხევი", "Name_Eng": "Bnelikhevi", "Type_Geo": "ოქრო-პოლიმეტალები", "Type_Eng": "Gold-polymetallic ores", "raioni": "თეთრიწყარო", "District": "Tetritskaro", "symbol": "oqro", "category": "metal"}}, {"type": "Feature", "geometry": {"type": "Point", "coordinates": [44.38164, 41.38124]}, "properties": {"Name_Geo": "საყდრისი", "Name_Eng": "Sakdrisi", "Type_Geo": "მეორადი კვარციტებ", "Type_Eng": "Quarcite Gold-cupper Ore", "raioni": "ბოლნისი", "District": "Bolnisi", "symbol": "rkina", "category": "metal"}}, {"type": "Feature", "geometry": {"type": "Point", "coordinates": [44.39389, 41.38592]}, "properties": {"Name_Geo": "საყდრისი", "Name_Eng": "Sakdrisi", "Type_Geo": "ოქრო-პოლიმეტალები", "Type_Eng": "Gold-polymetallic ores", "raioni": "ბოლნისი", "District": "Bolnisi", "symbol": "oqro", "category": "metal"}}, {"type": "Feature", "geometry": {"type": "Point", "coordinates": [44.45112, 41.37185]}, "properties": {"Name_Geo": "მადნეული", "Name_Eng": "Madneuli", "Type_Geo": "პოლიმეტალები", "Type_Eng": "Polimetal", "raioni": "ბოლნისი", "District": "Bolnisi", "symbol": "spilendzi", "category": "metal"}}, {"type": "Feature", "geometry": {"type": "Point", "coordinates": [44.44017, 41.40591]}, "properties": {"Name_Geo": "დავით-გარეჯი (სამთ", "Name_Eng": "Davit-Gareji", "Type_Geo": "ოქრო-ბარიტ-პოლიმეტ", "Type_Eng": "Gold-Barit-polymetallic ores", "raioni": "ბოლნისი", "District": "Bolnisi", "symbol": "oqro", "category": "metal"}}, {"type": "Feature", "geometry": {"type": "Point", "coordinates": [44.46362, 41.39601]}, "properties": {"Name_Geo": "მუშევანი 2", "Name_Eng": "Mushevani 2", "Type_Geo": "ოქრო-სპილენძი", "Type_Eng": "Gold-copper", "raioni": "ბოლნისი", "District": "Bolnisi", "symbol": "oqro", "category": "metal"}}, {"type": "Feature", "geometry": {"type": "Point", "coordinates": [44.36135, 41.46849]}, "properties": {"Name_Geo": "ფიტარეთი", "Name_Eng": "Fitareti", "Type_Geo": "ოქრო", "Type_Eng": "Gold", "raioni": "ბოლნისი", "District": "Bolnisi", "symbol": "oqro", "category": "metal"}}, {"type": "Feature", "geometry": {"type": "Point", "coordinates": [44.28751, 41.458]}, "properties": {"Name_Geo": "ფიტარეთი", "Name_Eng": "Fitareti", "Type_Geo": "ოქრო", "Type_Eng": "Gold", "raioni": "ბოლნისი", "District": "Bolnisi", "symbol": "oqro", "category": "metal"}}, {"type": "Feature", "geometry": {"type": "Point", "coordinates": [44.32924, 41.46268]}, "properties": {"Name_Geo": "ფიტარეთი", "Name_Eng": "Fitareti", "Type_Geo": "ოქრო", "Type_Eng": "Gold", "raioni": "ბოლნისი", "District": "Bolnisi", "symbol": "oqro", "category": "metal"}}, {"type": "Feature", "geometry": {"type": "Point", "coordinates": [44.70156, 41.40464]}, "properties": {"Name_Geo": "თამარისი", "Name_Eng": "Tamarisi", "Type_Geo": "სპილენძი, პოლიმეტა", "Type_Eng": "Copper, complex ore", "raioni": "ბოლნისი", "District": "Bolnisi", "symbol": "spilendzi", "category": "metal"}}, {"type": "Feature", "geometry": {"type": "Point", "coordinates": [44.32836, 41.46435]}, "properties": {"Name_Geo": "ფიტარეთი", "Name_Eng": "Fitareti", "Type_Geo": "ქვიშრობული ოქრო", "Type_Eng": "Alluvial gold", "raioni": "ბოლნისი", "District": "Bolnisi", "symbol": "oqro", "category": "metal"}}, {"type": "Feature", "geometry": {"type": "Point", "coordinates": [44.3516, 41.37886]}, "properties": {"Name_Geo": "დასავლეთ საყდრისი", "Name_Eng": "West Sakdrisi", "Type_Geo": "ოქრო-მცირესულფიდუ", "Type_Eng": "Gold-minor sulphide ores", "raioni": "ბოლნისი", "District": "Bolnisi", "symbol": "oqro", "category": "metal"}}, {"type": "Feature", "geometry": {"type": "Point", "coordinates": [44.36465, 41.50142]}, "properties": {"Name_Geo": "სამღერეთი-შიხილო", "Name_Eng": "SamgereTi-Shikhilo", "Type_Geo": "ოქრო-მცირესულფიდუ", "Type_Eng": "Gold-minor sulphide ores", "raioni": "თეთრიწყარო", "District": "Tetritskaro", "symbol": "oqro", "category": "metal"}}, {"type": "Feature", "geometry": {"type": "Point", "coordinates": [44.3143, 41.39969]}, "properties": {"Name_Geo": "დარბაზი", "Name_Eng": "Darbazi", "Type_Geo": "ოქრო-მცირესულფიდუ", "Type_Eng": "Gold-minor sulphide ores", "raioni": "ბოლნისი", "District": "Bolnisi", "symbol": "oqro", "category": "metal"}}, {"type": "Feature", "geometry": {"type": "Point", "coordinates": [44.48349, 41.41328]}, "properties": {"Name_Geo": "ზვარეთი", "Name_Eng": "Zvareti", "Type_Geo": "ოქრო-პოლიმეტალები", "Type_Eng": "Gold-polymetallic ores", "raioni": "ბოლნისი", "District": "Bolnisi", "symbol": "oqro", "category": "metal"}}, {"type": "Feature", "geometry": {"type": "Point", "coordinates": [44.34374, 41.46441]}, "properties": {"Name_Geo": "მადნის კლდე", "Name_Eng": "Madnis Klde", "Type_Geo": "ოქრო-პოლიმეტალები", "Type_Eng": "Gold-polymetallic ores", "raioni": "ბოლნისი", "District": "Bolnisi", "symbol": "oqro", "category": "metal"}}, {"type": "Feature", "geometry": {"type": "Point", "coordinates": [44.37679, 41.40837]}, "properties": {"Name_Geo": "იმედი", "Name_Eng": "Imedi", "Type_Geo": "ოქრო-მცირესულფიდუ", "Type_Eng": "Gold-minor sulphide ores", "raioni": "ბოლნისი", "District": "Bolnisi", "symbol": "oqro", "category": "metal"}}, {"type": "Feature", "geometry": {"type": "Point", "coordinates": [44.37552, 41.39949]}, "properties": {"Name_Geo": "იმედი", "Name_Eng": "Imedi", "Type_Geo": "ოქრო-მცირესულფიდუ", "Type_Eng": "Gold-minor sulphide ores", "raioni": "ბოლნისი", "District": "Bolnisi", "symbol": "oqro", "category": "metal"}}, {"type": "Feature", "geometry": {"type": "Point", "coordinates": [44.46836, 41.37242]}, "properties": {"Name_Geo": "მუშევანი-3", "Name_Eng": "Mushevani-3", "Type_Geo": "ოქრო-მცირესულფიდუ", "Type_Eng": "Gold-minor sulphide ores", "raioni": "ბოლნისი", "District": "Bolnisi", "symbol": "oqro", "category": "metal"}}, {"type": "Feature", "geometry": {"type": "Point", "coordinates": [44.44506, 41.41923]}, "properties": {"Name_Geo": "დავით-გარეჯი (კაზრ", "Name_Eng": "Davit-Gareji (Kazreti)", "Type_Geo": "ოქრო-პოლიმეტალური", "Type_Eng": "Gold-polymetallic ores", "raioni": "ბოლნისი", "District": "Bolnisi", "symbol": "oqro", "category": "metal"}}]}