{"type": "FeatureCollection", "features": [{"type": "Feature", "geometry": {"type": "Point", "coordinates": [43.975278, 41.588695]}, "properties": {"Name_Geo": "თრიალეთი", "Name_Eng": "Trialeti", "Place_Geo": "კედლებზე", "Place_Eng": "On the walls", "N": 3}}, {"type": "Feature", "geometry": {"type": "Point", "coordinates": [43.975583, 41.588528]}, "properties": {"Name_Geo": "თრიალეთი", "Name_Eng": "Trialeti", "Place_Geo": "კედლებზე", "Place_Eng": "On the walls", "N": 4}}, {"type": "Feature", "geometry": {"type": "Point", "coordinates": [44.285389, 41.700584]}, "properties": {"Name_Geo": "არხოტი", "Name_Eng": "Arkhoti", "Place_Geo": "ეკლესის ფასადზე", "Place_Eng": "On the church facade", "N": 13}}, {"type": "Feature", "geometry": {"type": "Point", "coordinates": [44.343278, 41.653]}, "properties": {"Name_Geo": "ახალსოფელი", "Name_Eng": "Akhalisopeli", "Place_Geo": "მენჰირზე, ეკლესის გალავანზე და საფლა", "Place_Eng": "On the menhir, church fence, and tombstones", "N": 15}}, {"type": "Feature", "geometry": {"type": "Point", "coordinates": [44.325417, 41.653195]}, "properties": {"Name_Geo": "გოხნარი", "Name_Eng": "Gokhnari", "Place_Geo": "ეკლესის ფასადზე", "Place_Eng": "On the church facade", "N": 14}}, {"type": "Feature", "geometry": {"type": "Point", "coordinates": [44.435583, 41.536139]}, "properties": {"Name_Geo": "ჭივჭავი", "Name_Eng": "Chivchavi", "Place_Geo": "მენჰირზე", "Place_Eng": "On the menhir", "N": 17}}, {"type": "Feature", "geometry": {"type": "Point", "coordinates": [44.496639, 41.507834]}, "properties": {"Name_Geo": "სამშვილდე", "Name_Eng": "Samshvilde", "Place_Geo": "ეკლესის ფასადზე და საფლავის ქვებზე", "Place_Eng": "On the church facade and tombstones", "N": 19}}, {"type": "Feature", "geometry": {"type": "Point", "coordinates": [44.508364, 41.506722]}, "properties": {"Name_Geo": "სამშვილდე", "Name_Eng": "Samshvilde", "Place_Geo": "ეკლესის ფასადზე და საფლავის ქვებზე", "Place_Eng": "On the church facade and tombstones", "N": 20}}, {"type": "Feature", "geometry": {"type": "Point", "coordinates": [44.411242, 41.507456]}, "properties": {"Name_Geo": "სამღერეთი", "Name_Eng": "Samgereti", "Place_Geo": "ეკლესის ფასადზე", "Place_Eng": "On the church facade", "N": 0}}, {"type": "Feature", "geometry": {"type": "Point", "coordinates": [44.680694, 41.618584]}, "properties": {"Name_Geo": "ღოუბანი", "Name_Eng": "Goubani", "Place_Geo": "ეკლესის ფასადზე", "Place_Eng": "On the church facade", "N": 0}}, {"type": "Feature", "geometry": {"type": "Point", "coordinates": [44.342972, 41.336445]}, "properties": {"Name_Geo": "დმანისი", "Name_Eng": "Dmanisi", "Place_Geo": "ეკლესის ფასადზე", "Place_Eng": "On the church facade", "N": 12}}, {"type": "Feature", "geometry": {"type": "Point", "coordinates": [44.09775, 41.417084]}, "properties": {"Name_Geo": "ზემო ყარაბულახი", "Name_Eng": "Zemo Karabulakhi", "Place_Geo": "საკურთხევლის ქვაზე", "Place_Eng": "On the altar stone", "N": 11}}, {"type": "Feature", "geometry": {"type": "Point", "coordinates": [44.056981, 41.606581]}, "properties": {"Name_Geo": "წალკა", "Name_Eng": "Tsalka", "Place_Geo": "მეგალითზე", "Place_Eng": "On the megaliths", "N": 6}}, {"type": "Feature", "geometry": {"type": "Point", "coordinates": [43.884585, 41.615851]}, "properties": {"Name_Geo": "ბერთა", "Name_Eng": "Berta", "Place_Geo": "ეკლესის ფასადზე", "Place_Eng": "On the church facade", "N": 2}}, {"type": "Feature", "geometry": {"type": "Point", "coordinates": [43.843022, 41.679645]}, "properties": {"Name_Geo": "რეხა", "Name_Eng": "Rekha", "Place_Geo": "მენჰირზე", "Place_Eng": "On the menhir", "N": 1}}, {"type": "Feature", "geometry": {"type": "Point", "coordinates": [44.547922, 41.55545]}, "properties": {"Name_Geo": "მაწევანი", "Name_Eng": "Matsevani", "Place_Geo": "სალოცავ სტელაზე (ძუძუს ხატი)", "Place_Eng": "On the prayer stele (icon of the Virgin’s breast)", "N": 0}}, {"type": "Feature", "geometry": {"type": "Point", "coordinates": [43.975583, 41.588528]}, "properties": {"Name_Geo": "თრიალეთი", "Name_Eng": "Trialeti", "Place_Geo": "კედლებზე", "Place_Eng": "On the walls", "N": 5}}, {"type": "Feature", "geometry": {"type": "Point", "coordinates": [44.128829, 41.488633]}, "properties": {"Name_Geo": "სარკინეთი", "Name_Eng": "Sarkineti", "Place_Geo": "ეკლესის ფასადზე", "Place_Eng": "On the church facade", "N": 7}}, {"type": "Feature", "geometry": {"type": "Point", "coordinates": [44.081745, 41.428091]}, "properties": {"Name_Geo": "ზურტაკეტის ყორღანები", "Name_Eng": "Kurgans of Zurtaketi", "Place_Geo": "ყორღანების დარბაზების კედლებზე", "Place_Eng": "On the walls of kurgan chambers", "N": 8}}, {"type": "Feature", "geometry": {"type": "Point", "coordinates": [44.081745, 41.428091]}, "properties": {"Name_Geo": "ზურტაკეტის ყორღანები", "Name_Eng": "Kurgans of Zurtaketi", "Place_Geo": "ყორღანების დარბაზების კედლებზე", "Place_Eng": "On the walls of kurgan chambers", "N": 9}}, {"type": "Feature", "geometry": {"type": "Point", "coordinates": [44.081745, 41.428091]}, "properties": {"Name_Geo": "ზურტაკეტის ყორღანები", "Name_Eng": "Kurgans of Zurtaketi", "Place_Geo": "ყორღანების დარბაზების კედლებზე", "Place_Eng": "On the walls of kurgan chambers", "N": 10}}, {"type": "Feature", "geometry": {"type": "Point", "coordinates": [44.402772, 41.555562]}, "properties": {"Name_Geo": "ნაჭივჭავარი", "Name_Eng": "Nachivchavari", "Place_Geo": "ეკლესის ფასადზე და საფლავის ქვებზე", "Place_Eng": "On the church facade and tombstones", "N": 16}}]}