{
"type": "FeatureCollection",
"name": "zoo_leptospirosis",
"crs": { "type": "name", "properties": { "name": "urn:ogc:def:crs:OGC:1.3:CRS84" } },
"features": [
{ "type": "Feature", "properties": { "Name_Geo": "მარნეული", "Municipal_": "მარნეულის მუნიციპ", "Region_Geo": "ქვემო ქართლი", "Leptospiro": 1.0, "Leptospi_1": "6-8", "disease_geo": "ლეპტოსპიროზი" }, "geometry": { "type": "Point", "coordinates": [ 44.784709000249755, 41.468965000225381 ] } },
{ "type": "Feature", "properties": { "Name_Geo": "რუსთავი", "Municipal_": "ქალაქ რუსთავის მუნ", "Region_Geo": "ქვემო ქართლი", "Leptospiro": 1.0, "Leptospi_1": "6-8", "disease_geo": "ლეპტოსპიროზი" }, "geometry": { "type": "Point", "coordinates": [ 45.040673999906879, 41.523601999869619 ] } },
{ "type": "Feature", "properties": { "Name_Geo": "წიფორი", "Municipal_": "ბოლნისის მუნიციპა", "Region_Geo": "ქვემო ქართლი", "Leptospiro": 1.0, "Leptospi_1": "1-5", "disease_geo": "ლეპტოსპიროზი" }, "geometry": { "type": "Point", "coordinates": [ 44.363734999879654, 41.435367999784091 ] } },
{ "type": "Feature", "properties": { "Name_Geo": "კაზრეთი", "Municipal_": "ბოლნისის მუნიციპა", "Region_Geo": "ქვემო ქართლი", "Leptospiro": 1.0, "Leptospi_1": "1-5", "disease_geo": "ლეპტოსპიროზი" }, "geometry": { "type": "Point", "coordinates": [ 44.418184999485128, 41.382009999973185 ] } },
{ "type": "Feature", "properties": { "Name_Geo": "ყიზილაჯლო", "Municipal_": "მარნეულის მუნიციპ", "Region_Geo": "ქვემო ქართლი", "Leptospiro": 1.0, "Leptospi_1": "1-5", "disease_geo": "ლეპტოსპიროზი" }, "geometry": { "type": "Point", "coordinates": [ 44.769801999450507, 41.482938000397517 ] } },
{ "type": "Feature", "properties": { "Name_Geo": "კასუმლო", "Municipal_": "მარნეულის მუნიციპ", "Region_Geo": "ქვემო ქართლი", "Leptospiro": 1.0, "Leptospi_1": "1-5", "disease_geo": "ლეპტოსპიროზი" }, "geometry": { "type": "Point", "coordinates": [ 44.867867000516966, 41.30160999979833 ] } },
{ "type": "Feature", "properties": { "Name_Geo": "რუსთავი", "Municipal_": "ქალაქ რუსთავის მუნ", "Region_Geo": "ქვემო ქართლი", "Leptospiro": 1.0, "Leptospi_1": "6-8", "disease_geo": "ლეპტოსპიროზი" }, "geometry": { "type": "Point", "coordinates": [ 45.040673999906879, 41.523601999869619 ] } },
{ "type": "Feature", "properties": { "Name_Geo": "მარნეული", "Municipal_": "მარნეულის მუნიციპ", "Region_Geo": "ქვემო ქართლი", "Leptospiro": 1.0, "Leptospi_1": "6-8", "disease_geo": "ლეპტოსპიროზი" }, "geometry": { "type": "Point", "coordinates": [ 44.784709000249755, 41.468965000225381 ] } },
{ "type": "Feature", "properties": { "Name_Geo": "სამება", "Municipal_": "წალკის მუნიციპალი", "Region_Geo": "ქვემო ქართლი", "Leptospiro": 1.0, "Leptospi_1": "1-5", "disease_geo": "ლეპტოსპიროზი" }, "geometry": { "type": "Point", "coordinates": [ 44.012802999650027, 41.597736000034288 ] } },
{ "type": "Feature", "properties": { "Name_Geo": "ვაშლოვანი", "Municipal_": "თეთრიწყაროს მუნიც", "Region_Geo": "ქვემო ქართლი", "Leptospiro": 1.0, "Leptospi_1": "1-5", "disease_geo": "ლეპტოსპიროზი" }, "geometry": { "type": "Point", "coordinates": [ 44.74001899998116, 41.617909999974977 ] } },
{ "type": "Feature", "properties": { "Name_Geo": "სადახლო", "Municipal_": "მარნეულის მუნიციპ", "Region_Geo": "ქვემო ქართლი", "Leptospiro": 1.0, "Leptospi_1": "1-5", "disease_geo": "ლეპტოსპიროზი" }, "geometry": { "type": "Point", "coordinates": [ 44.784569999941361, 41.241673999833978 ] } },
{ "type": "Feature", "properties": { "Name_Geo": "რუსთავი", "Municipal_": "ქალაქ რუსთავის მუნ", "Region_Geo": "ქვემო ქართლი", "Leptospiro": 1.0, "Leptospi_1": "6-8", "disease_geo": "ლეპტოსპიროზი" }, "geometry": { "type": "Point", "coordinates": [ 45.040673999906879, 41.523601999869619 ] } },
{ "type": "Feature", "properties": { "Name_Geo": "ბოლნისი", "Municipal_": "ბოლნისის მუნიციპა", "Region_Geo": "ქვემო ქართლი", "Leptospiro": 1.0, "Leptospi_1": "1-5", "disease_geo": "ლეპტოსპიროზი" }, "geometry": { "type": "Point", "coordinates": [ 44.548157000495486, 41.449494999973155 ] } },
{ "type": "Feature", "properties": { "Name_Geo": "რუსთავი", "Municipal_": "ქალაქ რუსთავის მუნ", "Region_Geo": "ქვემო ქართლი", "Leptospiro": 1.0, "Leptospi_1": "6-8", "disease_geo": "ლეპტოსპიროზი" }, "geometry": { "type": "Point", "coordinates": [ 45.040673999906879, 41.523601999869619 ] } },
{ "type": "Feature", "properties": { "Name_Geo": "მარნეული", "Municipal_": "მარნეულის მუნიციპ", "Region_Geo": "ქვემო ქართლი", "Leptospiro": 1.0, "Leptospi_1": "6-8", "disease_geo": "ლეპტოსპიროზი" }, "geometry": { "type": "Point", "coordinates": [ 44.784709000249755, 41.468965000225381 ] } },
{ "type": "Feature", "properties": { "Name_Geo": "თეთრიწყარო", "Municipal_": "თეთრიწყაროს მუნიც", "Region_Geo": "ქვემო ქართლი", "Leptospiro": 1.0, "Leptospi_1": "1-5", "disease_geo": "ლეპტოსპიროზი" }, "geometry": { "type": "Point", "coordinates": [ 44.472564000285914, 41.542308000106701 ] } },
{ "type": "Feature", "properties": { "Name_Geo": "გარდაბანი", "Municipal_": "გარდაბნის მუნიციპ", "Region_Geo": "ქვემო ქართლი", "Leptospiro": 1.0, "Leptospi_1": "1-5", "disease_geo": "ლეპტოსპიროზი" }, "geometry": { "type": "Point", "coordinates": [ 45.09129700007739, 41.458506000327915 ] } },
{ "type": "Feature", "properties": { "Name_Geo": "გარდაბანი", "Municipal_": "გარდაბნის მუნიციპ", "Region_Geo": "ქვემო ქართლი", "Leptospiro": 1.0, "Leptospi_1": "1-5", "disease_geo": "ლეპტოსპიროზი" }, "geometry": { "type": "Point", "coordinates": [ 45.09129700007739, 41.458506000327915 ] } },
{ "type": "Feature", "properties": { "Name_Geo": "რუსთავი", "Municipal_": "ქალაქ რუსთავის მუნ", "Region_Geo": "ქვემო ქართლი", "Leptospiro": 1.0, "Leptospi_1": "6-8", "disease_geo": "ლეპტოსპიროზი" }, "geometry": { "type": "Point", "coordinates": [ 45.040673999906879, 41.523601999869619 ] } },
{ "type": "Feature", "properties": { "Name_Geo": "მარნეული", "Municipal_": "მარნეულის მუნიციპ", "Region_Geo": "ქვემო ქართლი", "Leptospiro": 1.0, "Leptospi_1": "6-8", "disease_geo": "ლეპტოსპიროზი" }, "geometry": { "type": "Point", "coordinates": [ 44.784709000249755, 41.468965000225381 ] } },
{ "type": "Feature", "properties": { "Name_Geo": "რუსთავი", "Municipal_": "ქალაქ რუსთავის მუნ", "Region_Geo": "ქვემო ქართლი", "Leptospiro": 1.0, "Leptospi_1": "6-8", "disease_geo": "ლეპტოსპიროზი" }, "geometry": { "type": "Point", "coordinates": [ 45.040673999906879, 41.523601999869619 ] } },
{ "type": "Feature", "properties": { "Name_Geo": "ბოლნისი", "Municipal_": "ბოლნისის მუნიციპა", "Region_Geo": "ქვემო ქართლი", "Leptospiro": 1.0, "Leptospi_1": "1-5", "disease_geo": "ლეპტოსპიროზი" }, "geometry": { "type": "Point", "coordinates": [ 44.548157000495486, 41.449494999973155 ] } },
{ "type": "Feature", "properties": { "Name_Geo": "მარნეული", "Municipal_": "მარნეულის მუნიციპ", "Region_Geo": "ქვემო ქართლი", "Leptospiro": 1.0, "Leptospi_1": "6-8", "disease_geo": "ლეპტოსპიროზი" }, "geometry": { "type": "Point", "coordinates": [ 44.784709000249755, 41.468965000225381 ] } },
{ "type": "Feature", "properties": { "Name_Geo": "მარნეული", "Municipal_": "მარნეულის მუნიციპ", "Region_Geo": "ქვემო ქართლი", "Leptospiro": 1.0, "Leptospi_1": "6-8", "disease_geo": "ლეპტოსპიროზი" }, "geometry": { "type": "Point", "coordinates": [ 44.784709000249755, 41.468965000225381 ] } },
{ "type": "Feature", "properties": { "Name_Geo": "მარნეული", "Municipal_": "მარნეულის მუნიციპ", "Region_Geo": "ქვემო ქართლი", "Leptospiro": 1.0, "Leptospi_1": "6-8", "disease_geo": "ლეპტოსპიროზი" }, "geometry": { "type": "Point", "coordinates": [ 44.784709000249755, 41.468965000225381 ] } },
{ "type": "Feature", "properties": { "Name_Geo": "მარნეული", "Municipal_": "მარნეულის მუნიციპ", "Region_Geo": "ქვემო ქართლი", "Leptospiro": 1.0, "Leptospi_1": "6-8", "disease_geo": "ლეპტოსპიროზი" }, "geometry": { "type": "Point", "coordinates": [ 44.784709000249755, 41.468965000225381 ] } },
{ "type": "Feature", "properties": { "Name_Geo": "წალკა", "Municipal_": "წალკის მუნიციპალი", "Region_Geo": "ქვემო ქართლი", "Leptospiro": 1.0, "Leptospi_1": "1-5", "disease_geo": "ლეპტოსპიროზი" }, "geometry": { "type": "Point", "coordinates": [ 44.093399999647538, 41.598611000298945 ] } },
{ "type": "Feature", "properties": { "Name_Geo": "წალკა", "Municipal_": "წალკის მუნიციპალი", "Region_Geo": "ქვემო ქართლი", "Leptospiro": 1.0, "Leptospi_1": "1-5", "disease_geo": "ლეპტოსპიროზი" }, "geometry": { "type": "Point", "coordinates": [ 44.093399999647538, 41.598611000298945 ] } },
{ "type": "Feature", "properties": { "Name_Geo": "ბოლნისი", "Municipal_": "ბოლნისის მუნიციპა", "Region_Geo": "ქვემო ქართლი", "Leptospiro": 1.0, "Leptospi_1": "1-5", "disease_geo": "ლეპტოსპიროზი" }, "geometry": { "type": "Point", "coordinates": [ 44.548157000495486, 41.449494999973155 ] } },
{ "type": "Feature", "properties": { "Name_Geo": "მარტყოფი", "Municipal_": "გარდაბნის მუნიციპ", "Region_Geo": "ქვემო ქართლი", "Leptospiro": 1.0, "Leptospi_1": "1-5", "disease_geo": "ლეპტოსპიროზი" }, "geometry": { "type": "Point", "coordinates": [ 45.021584000073815, 41.774326999992482 ] } },
{ "type": "Feature", "properties": { "Name_Geo": "რუსთავი", "Municipal_": "ქალაქ რუსთავის მუნ", "Region_Geo": "ქვემო ქართლი", "Leptospiro": 1.0, "Leptospi_1": "6-8", "disease_geo": "ლეპტოსპიროზი" }, "geometry": { "type": "Point", "coordinates": [ 45.040673999906879, 41.523601999869619 ] } }
]
}
